City_ID,City,Lat,Lng,Max Temp,Humidity,Cloudiness,Wind Speed,Country,Date
0,egvekinot,66.3167,-179.1667,20.01,85,100,15.21,RU,1667878711
1,kapaa,22.0752,-159.319,82.38,80,40,17.27,US,1667878712
2,derzhavinsk,51.1,66.3167,24.24,93,77,4.83,KZ,1667878712
3,thompson,55.7435,-97.8558,-11.04,84,0,3.44,CA,1667878712
4,micheweni,-4.9667,39.8333,78.58,83,13,3.74,TZ,1667878713
5,kolo,52.2002,18.6387,44.92,92,90,7.94,PL,1667878713
6,ushuaia,-54.8,-68.3,55.02,54,20,5.75,AR,1667878713
7,yerbogachen,61.2767,108.0108,19.94,91,100,8.72,RU,1667878714
8,banda aceh,5.5577,95.3222,84.04,67,100,7.99,ID,1667878714
9,kavaratti,10.5669,72.642,81.45,73,1,6.04,IN,1667878715
10,barrow,71.2906,-156.7887,26.62,80,100,24.16,US,1667878715
11,nieves,15.3274,120.9485,87.31,64,75,5.5,PH,1667878715
12,gushikawa,26.3544,127.8686,78.03,75,75,14.97,JP,1667878716
13,nizhnevartovsk,60.9344,76.5531,26.62,100,100,8.99,RU,1667878424
14,butaritari,3.0707,172.7902,80.69,73,17,4.16,KI,1667878716
15,svetlopolyansk,59.4184,52.3605,30.42,95,100,8.63,RU,1667878716
16,hithadhoo,-0.6,73.0833,82.65,74,25,17.31,MV,1667878717
17,jamestown,42.097,-79.2353,44.19,73,0,8.05,US,1667878576
18,bambous virieux,-20.3428,57.7575,77.22,73,40,8.05,MU,1667878717
19,vanavara,60.34,102.2797,19.15,87,99,10.16,RU,1667878717
20,clyde river,70.4692,-68.5914,5.23,72,0,5.75,CA,1667878718
21,puerto ayora,-0.7393,-90.3518,66.54,86,90,1.01,EC,1667878601
22,alegrete,-29.7831,-55.7919,54.9,76,0,10.8,BR,1667878718
23,kodiak,57.79,-152.4072,36.91,87,100,13.8,US,1667878719
24,gat,31.61,34.7642,62.78,100,17,9.84,IL,1667878719
25,avarua,-21.2078,-159.775,75.25,69,100,8.05,CK,1667878719
26,high level,58.5169,-117.136,-7.49,84,40,0.0,CA,1667878720
27,busselton,-33.65,115.3333,69.44,54,90,6.15,AU,1667878720
28,tigil,57.8,158.6667,20.35,91,75,7.18,RU,1667878720
29,verkhoyansk,67.5447,133.385,1.15,96,100,2.48,RU,1667878721
30,kudahuvadhoo,2.6708,72.8944,81.03,76,16,10.54,MV,1667878721
31,port hueneme,34.1478,-119.1951,58.51,93,75,5.75,US,1667878722
32,rikitea,-23.1203,-134.9692,74.03,91,100,14.92,PF,1667878722
33,chokurdakh,70.6333,147.9167,-10.89,98,70,11.07,RU,1667878722
34,norman wells,65.282,-126.8329,1.44,85,20,9.22,CA,1667878723
35,santa rosa,14.3122,121.1114,86.09,75,98,10.78,PH,1667878723
36,albany,42.6001,-73.9662,48.56,58,4,1.01,US,1667878575
37,hobart,-42.8794,147.3294,81.27,53,0,5.75,AU,1667878724
38,punta arenas,-53.15,-70.9167,50.11,71,0,14.97,CL,1667878724
39,vaini,-21.2,-175.2,80.76,74,20,8.05,TO,1667878725
40,vila velha,-20.3297,-40.2925,71.94,86,100,3.44,BR,1667878725
41,qaanaaq,77.484,-69.3632,-0.56,98,100,4.05,GL,1667878726
42,bereda,43.2686,-7.5406,56.41,100,99,8.48,ES,1667878726
43,griffith,41.5284,-87.4237,46.26,75,0,11.5,US,1667878726
44,narsaq,60.9167,-46.05,30.42,73,100,7.16,GL,1667878727
45,paita,-5.0892,-81.1144,62.78,87,10,10.13,PE,1667878727
46,nouadhibou,20.931,-17.0347,67.98,73,16,10.36,MR,1667878728
47,bredasdorp,-34.5322,20.0403,56.77,87,73,4.88,ZA,1667878728
48,katsuura,35.1333,140.3,66.52,57,0,9.35,JP,1667878728
49,zhigansk,66.7697,123.3711,-5.84,91,100,7.11,RU,1667878729
50,mataura,-46.1927,168.8643,65.48,51,83,3.33,NZ,1667878729
51,bobcaygeon,44.5462,-78.542,38.88,71,6,8.75,CA,1667878729
52,krasnoselkup,65.7,82.4667,22.71,96,100,8.16,RU,1667878730
53,cherskiy,68.75,161.3,-6.81,99,52,1.59,RU,1667878730
54,saint-philippe,-21.3585,55.7679,76.59,77,18,8.43,RE,1667878731
55,cape town,-33.9258,18.4232,61.12,90,0,4.61,ZA,1667878546
56,lingao,19.9103,109.6859,76.51,80,97,12.86,CN,1667878731
57,yaan,7.3833,8.5667,72.25,48,97,1.86,NG,1667878731
58,assiniboia,49.6334,-105.9845,21.02,86,100,14.97,CA,1667878673
59,severnyy,50.677,36.5532,33.84,93,0,4.47,RU,1667878732
60,bluff,-46.6,168.3333,65.8,75,56,14.29,NZ,1667878733
61,nikolskoye,59.7035,30.7861,39.09,92,100,10.51,RU,1667878733
62,boke,10.9409,-14.2967,75.51,86,91,1.5,GN,1667878733
63,sola,-13.8833,167.55,86.67,74,75,6.91,VU,1667878734
64,san quintin,30.4833,-115.95,63.37,87,2,7.14,MX,1667878734
65,kaitangata,-46.2817,169.8464,59.45,68,98,5.1,NZ,1667878735
66,bathsheba,13.2167,-59.5167,83.01,74,40,18.41,BB,1667878735
67,mount gambier,-37.8333,140.7667,79.66,40,0,1.05,AU,1667878735
68,haines junction,60.7522,-137.5108,-9.45,77,95,2.3,CA,1667878736
69,new norfolk,-42.7826,147.0587,80.91,27,49,3.0,AU,1667878736
70,newport,51.5877,-2.9984,52.77,90,81,21.0,GB,1667878736
71,suoyarvi,62.0833,32.35,37.45,91,100,8.25,RU,1667878737
72,seoul,37.5683,126.9778,62.17,55,0,3.44,KR,1667878505
73,qena,26.1615,32.7183,63.9,43,10,5.21,EG,1667878737
74,bengkulu,-3.8004,102.2655,80.83,74,100,3.53,ID,1667878474
75,victoria,22.2855,114.1577,75.33,84,95,8.99,HK,1667878633
76,khani,41.9563,42.9566,44.17,69,100,5.91,GE,1667878738
77,shimoda,34.6667,138.95,68.36,59,5,5.48,JP,1667878738
78,henties bay,-22.116,14.2845,60.13,93,2,6.87,NA,1667878593
79,port said,31.2565,32.2841,64.38,88,75,13.8,EG,1667878739
80,teluknaga,-6.0989,106.6381,87.98,84,40,3.44,ID,1667878739
81,caravelas,-17.7125,-39.2481,69.64,75,81,4.5,BR,1667878739
82,torbay,47.6666,-52.7314,58.75,95,75,21.85,CA,1667878534
83,ribeira grande,38.5167,-28.7,62.78,72,100,4.0,PT,1667878740
84,kavieng,-2.5744,150.7967,84.47,67,100,5.39,PG,1667878740
85,qui nhon,13.7667,109.2333,79.68,74,100,15.66,VN,1667878741
86,kimbe,-5.5502,150.1429,86.83,67,87,6.33,PG,1667878741
87,tuktoyaktuk,69.4541,-133.0374,1.4,78,0,8.05,CA,1667878742
88,port alfred,-33.5906,26.891,62.19,89,100,3.0,ZA,1667878742
89,castro,-24.7911,-50.0119,47.61,98,7,5.12,BR,1667878742
90,aswan,24.0934,32.907,61.9,39,0,0.0,EG,1667878743
91,roma,43.2128,-75.4557,44.96,68,5,1.99,US,1667878743
92,lebu,-37.6167,-73.65,53.06,86,100,9.26,CL,1667878744
93,oktyabrskoye,43.0645,44.7417,33.35,93,46,2.24,RU,1667878744
94,pevek,69.7008,170.3133,0.01,98,14,3.24,RU,1667878744
95,hermanus,-34.4187,19.2345,59.14,84,72,6.02,ZA,1667878745
96,hilo,19.7297,-155.09,78.53,80,75,4.61,US,1667878745
97,upernavik,72.7868,-56.1549,4.59,87,67,7.14,GL,1667878746
98,srikakulam,18.3,83.9,79.41,66,27,5.14,IN,1667878746
99,torbat-e jam,35.244,60.6225,41.4,82,100,7.92,IR,1667878747
100,taoudenni,22.6783,-3.9836,70.45,21,26,8.79,ML,1667878747
101,east london,-33.0153,27.9116,65.34,88,75,13.8,ZA,1667878747
102,waipawa,-41.4122,175.5153,57.79,69,29,5.84,NZ,1667878748
103,calvia,39.5657,2.5062,60.08,86,5,7.02,ES,1667878748
104,iracoubo,5.4802,-53.2011,76.51,88,100,6.42,GF,1667878749
105,tignere,7.3667,12.65,65.3,55,99,0.49,CM,1667878749
106,port elizabeth,-33.918,25.5701,62.31,91,0,14.97,ZA,1667878749
107,vostok,46.4856,135.8833,34.23,53,70,10.36,RU,1667878750
108,talara,-4.5772,-81.2719,63.61,88,19,14.34,PE,1667878750
109,vao,-22.6667,167.4833,74.32,84,96,14.2,NC,1667878751
110,saldanha,-33.0117,17.9442,60.17,84,82,6.46,ZA,1667878751
111,arraial do cabo,-22.9661,-42.0278,67.17,82,100,5.44,BR,1667878752
112,deputatskiy,69.3,139.9,-6.97,93,100,5.61,RU,1667878752
113,cobija,-11.0267,-68.7692,74.19,49,11,1.77,BO,1667878752
114,bethel,41.3712,-73.414,55.76,46,0,6.91,US,1667878753
115,flinders,-34.5833,150.8552,72.37,62,49,11.81,AU,1667878753
116,cabo san lucas,22.8909,-109.9124,73.51,75,0,8.05,MX,1667878753
117,port hedland,-20.3167,118.5667,82.45,39,0,24.16,AU,1667878754
118,espanola,35.9911,-106.0806,56.71,53,4,1.01,US,1667878754
119,tasiilaq,65.6145,-37.6368,28.74,94,100,2.71,GL,1667878755
120,atuona,-9.8,-139.0333,77.16,72,99,12.93,PF,1667878755
121,nioro,13.35,-15.75,74.43,41,100,7.0,GM,1667878755
122,zemio,5.0314,25.1361,69.94,93,100,2.57,CF,1667878756
123,torfyanoy,58.4916,49.1979,30.87,95,100,9.48,RU,1667878756
124,nosy varika,-20.5833,48.5333,74.23,74,92,6.35,MG,1667878757
125,wolsztyn,52.1155,16.1171,48.92,91,68,7.25,PL,1667878757
126,half moon bay,37.4636,-122.4286,53.83,79,40,14.97,US,1667878757
127,menongue,-14.6585,17.691,61.61,83,100,1.45,AO,1667878758
128,basoko,1.2391,23.616,69.55,97,100,1.54,CD,1667878758
129,kitob,39.0843,66.8332,39.24,97,100,7.09,UZ,1667878758
130,mareeba,-17.0,145.4333,89.44,56,25,8.97,AU,1667878759
131,sitka,57.0531,-135.33,30.09,37,0,5.75,US,1667878529
132,bogotol,56.2078,89.5342,25.02,91,90,5.3,RU,1667878759
133,mount isa,-20.7333,139.5,100.17,14,0,12.66,AU,1667878760
134,iquique,-20.2208,-70.1431,60.84,66,0,1.48,CL,1667878760
135,mayahi,13.9553,7.6712,72.27,18,20,8.81,NE,1667878760
136,raga,8.4596,25.678,71.26,61,92,1.77,SS,1667878761
137,hvolsvollur,63.7533,-20.2243,42.64,85,100,10.16,IS,1667878761
138,katerero,-1.4,31.7333,63.61,78,100,4.18,TZ,1667878761
139,zaliznychne,45.7489,28.6147,41.14,87,51,2.91,UA,1667878762
140,koungou,-12.7336,45.2042,78.51,83,40,6.91,YT,1667878762
141,chuy,-33.6971,-53.4616,57.31,88,10,7.83,UY,1667878762
142,berdigestyakh,62.0989,126.6992,-4.74,90,23,2.24,RU,1667878763
143,dawei,14.0833,98.2,89.92,44,34,3.36,MM,1667878763
144,bambanglipuro,-7.95,110.2833,83.84,72,86,7.47,ID,1667878764
145,aras,42.5617,-2.356,55.83,87,0,1.14,ES,1667878764
146,pandharpur,17.6667,75.3333,78.4,46,69,7.36,IN,1667878764
147,reykjavik,64.1355,-21.8954,44.26,70,100,11.5,IS,1667878765
148,hoshiarpur,31.5322,75.9172,73.63,41,0,3.69,IN,1667878765
149,markova,48.6758,24.4138,45.09,90,57,2.04,UA,1667878766
150,ciudad bolivar,8.1222,-63.5497,78.69,80,83,5.99,VE,1667878668
151,tecoanapa,16.5167,-98.75,79.59,87,31,4.03,MX,1667878766
152,yellowknife,62.456,-114.3525,5.56,85,75,0.0,CA,1667878617
153,mahebourg,-20.4081,57.7,77.25,73,40,8.05,MU,1667878767
154,morondava,-20.2833,44.2833,80.15,73,64,6.51,MG,1667878668
155,souillac,-20.5167,57.5167,75.58,73,40,8.05,MU,1667878767
156,shanghai,31.2222,121.4581,73.26,59,0,8.95,CN,1667878768
157,aberdeen,57.1437,-2.0981,54.5,92,75,29.93,GB,1667878768
158,jiwani,25.05,61.7417,81.01,67,0,6.06,PK,1667878769
159,lavrentiya,65.5833,-171.0,27.79,96,100,20.92,RU,1667878769
160,asau,46.4333,26.4,40.28,87,100,2.82,RO,1667878769
161,slave lake,55.2834,-114.769,4.98,85,100,5.75,CA,1667878770
162,klaksvik,62.2266,-6.589,50.92,95,100,38.27,FO,1667878770
163,saskylakh,71.9167,114.0833,-23.73,98,50,4.36,RU,1667878771
164,norilsk,69.3535,88.2027,-9.58,100,86,4.09,RU,1667878771
165,longyearbyen,78.2186,15.6401,22.84,80,75,13.8,SJ,1667878771
166,carnarvon,-24.8667,113.6333,71.49,52,5,14.03,AU,1667878772
167,selikhino,50.3672,137.4996,34.47,63,46,10.58,RU,1667878772
168,sao joao da barra,-21.6403,-41.0511,68.29,79,96,5.1,BR,1667878773
169,olafsvik,64.8945,-23.7142,41.74,78,100,17.45,IS,1667878773
170,milkovo,54.7167,158.6167,28.81,82,44,1.88,RU,1667878773
171,provideniya,64.3833,-173.3,32.11,86,100,17.9,RU,1667878774
172,sazava,49.8716,14.8967,46.18,90,44,5.77,CZ,1667878774
173,paamiut,61.994,-49.6678,16.7,56,100,8.16,GL,1667878775
174,tiarei,-17.5333,-149.3333,80.62,81,5,7.23,PF,1667878775
175,chimbote,-9.0853,-78.5783,62.94,86,10,6.2,PE,1667878510
176,ahipara,-35.1667,173.1667,62.64,84,96,14.5,NZ,1667878776
177,saint george,37.1041,-113.5841,63.25,40,75,16.11,US,1667878697
178,kholodnyy,62.7167,147.95,-6.81,97,96,0.31,RU,1667878776
179,pisco,-13.7,-76.2167,62.65,82,0,8.05,PE,1667878506
180,monrovia,6.3005,-10.7969,77.25,86,98,2.71,LR,1667878530
181,ixtapa,20.7,-105.2,76.23,78,40,2.3,MX,1667878495
182,puerto escondido,15.85,-97.0667,81.43,61,40,4.61,MX,1667878777
183,vardo,70.3705,31.1107,33.78,93,75,6.91,NO,1667878777
184,mayumba,-3.432,10.6554,76.69,90,50,5.1,GA,1667878778
185,ossora,59.2353,163.0719,28.29,93,100,3.4,RU,1667878778
186,mar del plata,-38.0023,-57.5575,60.94,93,0,14.0,AR,1667878553
187,naze,28.3667,129.4833,74.32,58,5,8.99,JP,1667878779
188,payakumbuh,-0.2202,100.6308,81.19,73,100,0.87,ID,1667878779
189,copiapo,-27.3667,-70.3333,53.29,78,87,2.75,CL,1667878779
190,touros,-5.1989,-35.4608,77.23,76,100,9.19,BR,1667878780
191,mango,27.9797,-82.3065,75.06,87,100,4.61,US,1667878780
192,tura,25.5198,90.2201,76.8,58,1,1.28,IN,1667878780
193,nemuro,43.3236,145.575,51.04,63,53,6.53,JP,1667878781
194,okha,53.5739,142.9478,27.12,62,99,21.0,RU,1667878781
195,kenai,60.5544,-151.2583,26.15,93,100,10.36,US,1667878781
196,mhlume,-26.0333,31.85,71.2,91,100,5.88,SZ,1667878782
197,tilichiki,60.4667,166.1,17.29,89,100,7.0,RU,1667878782
198,san patricio,28.017,-97.5169,77.07,86,4,10.29,US,1667878783
199,airai,-8.9266,125.4092,76.46,55,76,0.4,TL,1667878783
200,dikson,73.5069,80.5464,6.46,93,98,8.32,RU,1667878783
201,lorengau,-2.0226,147.2712,84.13,74,100,6.04,PG,1667878603
202,yingcheng,30.95,113.55,75.47,34,27,5.01,CN,1667878784
203,hasaki,35.7333,140.8333,72.28,52,0,10.92,JP,1667878595
204,santa maria da boa vista,-8.8078,-39.8256,75.9,73,94,12.1,BR,1667878784
205,korla,41.7597,86.1469,52.25,32,14,4.7,CN,1667878785
206,esperance,-33.8667,121.9,62.49,68,100,16.46,AU,1667878785
207,cantanhede,-3.6333,-44.3767,73.76,97,100,2.86,BR,1667878786
208,antalaha,-14.9003,50.2788,74.35,67,64,5.39,MG,1667878786
209,savonlinna,61.8699,28.88,41.05,100,100,10.36,FI,1667878743
210,dunedin,-45.8742,170.5036,62.01,65,77,10.25,NZ,1667878786
211,batagay,67.6333,134.6333,-2.07,94,100,3.49,RU,1667878787
212,ponferrada,42.5466,-6.5962,54.63,97,91,4.0,ES,1667878787
213,nichinan,31.6,131.3667,69.48,52,3,4.65,JP,1667878788
214,arlit,18.7369,7.3853,69.37,22,30,7.43,NE,1667878788
215,turayf,31.6725,38.6637,52.05,82,0,9.22,SA,1667878788
216,trairi,-3.2778,-39.2689,77.52,72,70,8.32,BR,1667878538
217,miles city,46.4083,-105.8406,32.97,55,0,13.8,US,1667878789
218,arman,59.7,150.1667,21.02,89,98,17.34,RU,1667878789
219,ancud,-41.8697,-73.8203,52.84,95,97,3.24,CL,1667878790
220,leningradskiy,69.3833,178.4167,18.43,90,100,10.02,RU,1667878790
221,vire,48.9167,-0.8333,54.79,85,100,17.56,FR,1667878790
222,cidreira,-30.1811,-50.2056,61.79,80,30,10.31,BR,1667878791
223,vanimo,-2.6741,141.3028,82.09,81,100,1.97,PG,1667878791
224,faanui,-16.4833,-151.75,78.87,73,16,6.53,PF,1667878667
225,mangrol,21.1167,70.1167,81.07,52,0,10.47,IN,1667878792
226,tiksi,71.6872,128.8694,0.43,90,100,17.18,RU,1667878792
227,alice springs,-23.7,133.8833,96.35,13,70,14.97,AU,1667878792
228,auki,-8.7676,160.7034,83.14,74,16,5.75,SB,1667878793
229,zhangye,38.9342,100.4517,51.01,22,1,5.73,CN,1667878793
230,pitimbu,-7.4706,-34.8086,75.79,74,15,5.17,BR,1667878794
231,blackwater,-23.5833,148.8833,84.6,29,30,1.32,AU,1667878794
232,cururupu,-1.8283,-44.8683,76.03,89,89,3.98,BR,1667878795
233,iqaluit,63.7506,-68.5145,15.53,66,75,4.61,CA,1667878795
234,tibiri,13.5627,7.0485,72.1,19,8,8.77,NE,1667878795
235,kungurtug,50.5994,97.5228,32.79,62,91,1.63,RU,1667878796
236,jinotega,13.0917,-86.0018,63.52,94,97,1.9,NI,1667878796
237,constitucion,-35.3333,-72.4167,55.02,76,99,6.89,CL,1667878797
238,port lincoln,-34.7333,135.8667,79.12,47,100,13.11,AU,1667878797
239,namibe,-15.1961,12.1522,67.33,76,0,6.53,AO,1667878797
240,santa cruz de tenerife,28.4682,-16.2546,75.29,72,0,3.44,ES,1667878576
241,springfield,37.2153,-93.2982,57.06,59,0,9.22,US,1667878644
242,kota kinabalu,5.9749,116.0724,87.78,74,20,3.44,MY,1667878797
243,ilulissat,69.2167,-51.1,-9.45,88,14,6.49,GL,1667878798
244,date,42.4681,140.8681,49.89,60,64,2.59,JP,1667878798
245,bonnyville,54.2668,-110.735,8.4,94,100,14.12,CA,1667878799
246,custoias,41.1053,-7.321,55.15,86,97,11.12,PT,1667878799
247,eirunepe,-6.6603,-69.8736,73.13,65,13,1.66,BR,1667878800
248,port macquarie,-31.4333,152.9167,67.89,58,59,9.86,AU,1667878800
249,lebowakgomo,-24.2,29.5,65.3,72,100,7.0,ZA,1667878801
250,acari,-15.4311,-74.6158,67.14,71,7,1.41,PE,1667878801
251,los llanos de aridane,28.6585,-17.9182,65.95,46,0,10.36,ES,1667878802
252,saint anthony,45.0205,-93.218,37.33,68,0,9.22,US,1667878802
253,hamilton,39.1834,-84.5333,54.77,39,75,9.22,US,1667878802
254,bombay,19.0144,72.8479,84.18,51,20,6.91,IN,1667878730
255,tabas,33.5959,56.9244,57.42,35,0,4.61,IR,1667878803
256,boa vista,2.8197,-60.6733,76.98,88,40,6.91,BR,1667878803
257,karratha,-20.7377,116.8463,82.11,28,0,14.25,AU,1667878804
258,dingle,10.9995,122.6711,86.13,73,98,9.06,PH,1667878804
259,bourail,-21.5667,165.4833,75.6,84,99,13.71,NC,1667878804
260,mormugao,15.4,73.8,79.86,57,20,8.05,IN,1667878805
261,klamath falls,42.2249,-121.7817,33.06,88,100,5.99,US,1667878760
262,anajatuba,-3.2644,-44.6197,74.35,96,100,3.8,BR,1667878805
263,eydhafushi,5.1033,73.0708,81.66,73,7,9.35,MV,1667878806
264,albanel,48.8832,-72.4487,33.94,60,32,17.27,CA,1667878806
265,severo-kurilsk,50.6789,156.125,39.97,74,80,17.78,RU,1667878806
266,fortuna,40.5982,-124.1573,44.94,96,75,13.8,US,1667878807
267,beringovskiy,63.05,179.3167,25.72,92,100,12.57,RU,1667878807
268,kulhudhuffushi,6.6221,73.07,80.46,79,9,9.13,MV,1667878808
269,sanghar,26.0466,68.9481,77.31,32,6,7.94,PK,1667878808
270,vestmanna,62.1564,-7.1664,49.12,81,100,32.21,FO,1667878808
271,sangar,63.9242,127.4739,-6.23,89,100,5.82,RU,1667878809
272,luderitz,-26.6481,15.1594,61.83,84,54,6.06,NA,1667878809
273,grindavik,63.8424,-22.4338,44.55,81,100,13.8,IS,1667878809
274,dumbrava,44.8833,26.1833,53.65,88,100,2.39,RO,1667878810
275,kargat,55.1956,80.2811,28.74,92,97,4.07,RU,1667878811
276,trincomalee,8.5711,81.2335,80.67,75,100,7.99,LK,1667878811
277,la reforma,25.0833,-108.05,68.99,74,12,4.63,MX,1667878812
278,georgetown,5.4112,100.3354,87.73,74,20,5.75,MY,1667878544
279,sorong,-0.8833,131.25,82.62,76,100,7.14,ID,1667878812
280,hualmay,-11.0964,-77.6139,63.77,85,11,7.38,PE,1667878813
281,bellmead,31.594,-97.1089,72.09,96,0,3.44,US,1667878813
282,santiago del estero,-27.7951,-64.2615,73.78,32,93,7.78,AR,1667878814
283,daura,11.5538,11.4085,70.41,24,21,8.23,NG,1667878814
284,atambua,-9.1061,124.8925,86.11,57,76,5.95,ID,1667878759
285,port hardy,50.6996,-127.4199,33.98,51,20,25.32,CA,1667878815
286,tomatlan,19.9333,-105.25,70.07,94,0,1.32,MX,1667878815
287,ekhabi,53.5102,142.9671,26.64,63,98,19.26,RU,1667878790
288,qaqortoq,60.7167,-46.0333,24.6,80,100,6.42,GL,1667878816
289,richards bay,-28.783,32.0377,70.72,95,98,5.19,ZA,1667878816
290,puerto del rosario,28.5004,-13.8627,71.35,83,75,12.66,ES,1667878817
291,salamiyah,35.0113,37.0532,56.01,79,100,5.61,SY,1667878817
292,pacific grove,36.6177,-121.9166,55.09,71,40,8.99,US,1667878813
293,hovd,48.0056,91.6419,44.42,32,100,7.65,MN,1667878818
294,isangel,-19.55,169.2667,84.31,74,75,6.91,VU,1667878818
295,rudnogorsk,57.2639,103.7519,23.97,78,100,11.54,RU,1667878819
296,khatanga,71.9667,102.5,7.66,96,100,2.66,RU,1667878819
297,cayenne,4.9333,-52.3333,75.24,94,100,1.14,GF,1667878819
298,zhezkazgan,47.8043,67.7144,26.58,80,100,11.18,KZ,1667878820
299,lagoa,39.05,-27.9833,62.65,70,100,17.54,PT,1667878820
300,nacala,-14.5428,40.6728,78.31,78,8,7.72,MZ,1667878821
301,solnechnyy,50.7214,136.6319,33.93,43,85,3.38,RU,1667878821
302,yantzaza,-3.8278,-78.7594,65.55,92,26,1.36,EC,1667878822
303,tazovskiy,67.4667,78.7,17.83,96,100,8.72,RU,1667878580
304,nuristan,35.3,70.8333,26.29,70,88,4.07,AF,1667878822
305,orlik,52.5178,99.825,27.46,79,99,1.52,RU,1667878823
306,san cristobal,7.7669,-72.225,66.38,94,100,2.44,VE,1667878823
307,khash,28.2211,61.2158,62.42,40,0,2.73,IR,1667878823
308,ambilobe,-13.2,49.05,78.51,54,100,4.5,MG,1667878824
309,vallenar,-28.5708,-70.7581,61.83,69,100,3.31,CL,1667878824
310,dahuk,36.8695,42.994,59.92,32,100,2.93,IQ,1667878824
311,sao jose da coroa grande,-8.8978,-35.1478,75.25,84,8,3.24,BR,1667878825
312,talnakh,69.4865,88.3972,-9.8,100,92,5.26,RU,1667878825
313,mehamn,71.0357,27.8492,31.95,93,75,8.05,NO,1667878825
314,lata,40.1629,-8.3327,59.92,92,100,6.15,PT,1667878826
315,altdorf,49.3875,11.3572,40.82,94,28,4.74,DE,1667878827
316,havelock,34.8791,-76.9013,73.38,91,40,6.91,US,1667878721
317,imbituba,-28.24,-48.6703,65.86,91,95,8.32,BR,1667878827
318,kalmunai,7.4167,81.8167,81.12,77,98,8.7,LK,1667878828
319,kysyl-syr,63.8986,122.7617,-8.1,92,19,4.65,RU,1667878828
320,champerico,14.3,-91.9167,76.98,88,100,8.88,GT,1667878828
321,tabou,4.423,-7.3528,77.92,85,93,5.57,CI,1667878829
322,padang,-0.9492,100.3543,82.45,73,100,3.76,ID,1667878829
323,dixon,38.4455,-121.8233,52.93,83,75,14.97,US,1667878829
324,harper,4.375,-7.7169,77.59,85,100,6.24,LR,1667878830
325,cairo,30.0626,31.2497,68.76,68,75,9.22,EG,1667878679
326,inhambane,-23.865,35.3833,77.97,80,34,8.72,MZ,1667878830
327,okhotsk,59.3833,143.3,8.28,62,5,20.15,RU,1667878831
328,emerald,-23.5333,148.1667,82.35,40,40,4.81,AU,1667878554
329,pitiquito,30.7,-112.0833,68.43,50,7,5.53,MX,1667878831
330,la ronge,55.1001,-105.2842,8.85,78,100,12.66,CA,1667878831
331,lebanon,36.2081,-86.2911,69.85,62,100,6.91,US,1667878832
332,brigantine,39.4101,-74.3646,63.01,60,0,6.91,US,1667878832
333,kruisfontein,-34.0033,24.7314,57.79,78,26,4.54,ZA,1667878832
334,tailai,46.3833,123.4,50.58,21,30,12.1,CN,1667878833
335,arrecife,28.963,-13.5477,64.38,88,3,5.75,ES,1667878833
336,salalah,17.0151,54.0924,73.49,73,0,2.3,OM,1667878834
337,berlevag,70.8578,29.0864,32.0,93,40,10.36,NO,1667878834
338,batsfjord,70.6345,29.7185,31.78,86,0,3.44,NO,1667878834
339,pulawy,51.4166,21.9694,46.74,90,92,1.99,PL,1667878835
340,mumford,5.2618,-0.759,78.8,83,98,5.48,GH,1667878835
341,lagos,6.5833,3.75,79.12,94,53,1.5,NG,1667878759
342,skibbereen,51.55,-9.2667,53.11,86,100,18.34,IE,1667878835
343,emirdag,39.0197,31.15,42.08,93,8,2.48,TR,1667878836
344,roald,62.5833,6.1333,47.75,87,18,11.5,NO,1667878836
345,quatre cocos,-20.2078,57.7625,77.09,71,65,11.54,MU,1667878837
346,maumere,-8.6199,122.2111,85.17,67,100,1.54,ID,1667878837
347,pangnirtung,66.1451,-65.7125,5.54,61,64,6.22,CA,1667878837
348,husavik,66.0449,-17.3389,39.88,92,100,13.11,IS,1667878838
349,agirish,61.9247,63.0231,24.15,92,100,5.5,RU,1667878838
350,tezu,27.9167,96.1667,77.31,41,1,2.89,IN,1667878838
351,rawson,-43.3002,-65.1023,61.09,72,0,13.8,AR,1667878839
352,oxkutzcab,20.3,-89.4167,70.47,98,47,2.86,MX,1667878839
353,porto santo,33.072,-16.3415,66.58,94,40,2.3,PT,1667878839
354,umm lajj,25.0213,37.2685,72.97,58,0,7.61,SA,1667878812
355,xinzhi,36.4989,111.7047,57.76,48,99,2.86,CN,1667878840
356,bang sai,14.2124,100.4966,91.99,53,94,8.99,TH,1667878840
357,porosozero,62.7191,32.727,37.13,92,100,9.98,RU,1667878841
358,faya,18.3851,42.4509,55.92,87,5,4.27,SA,1667878842
359,sioux lookout,50.1001,-91.917,28.47,93,100,3.44,CA,1667878842
360,mweka,-4.85,21.5667,65.39,94,100,1.03,CD,1667878843
361,lima,-12.0432,-77.0282,63.9,80,0,9.22,PE,1667878584
362,sayan,-11.1361,-77.1933,70.12,60,17,1.68,PE,1667878843
363,huarmey,-10.0681,-78.1522,64.63,84,53,7.63,PE,1667878844
364,ust-koksa,50.2696,85.6108,37.89,100,100,2.21,RU,1667878844
365,urmary,55.6789,47.944,32.22,97,100,7.43,RU,1667878845
366,kahului,20.8947,-156.47,82.42,71,20,17.27,US,1667878816
367,thio,-21.6167,166.2167,73.36,83,100,6.82,NC,1667878846
368,tacuarembo,-31.7333,-55.9833,50.68,89,0,6.53,UY,1667878846
369,okolona,38.1412,-85.6877,58.15,39,75,8.05,US,1667878846
370,kyabe,9.4515,18.9449,74.82,45,82,1.83,TD,1667878847
371,bitung,1.4451,125.1824,86.85,72,51,2.73,ID,1667878847
372,spornoye,50.8448,37.2913,32.14,84,48,6.15,RU,1667878848
373,panama city,8.9936,-79.5197,78.39,93,40,4.61,PA,1667878848
374,nanortalik,60.1432,-45.2371,28.81,87,100,3.49,GL,1667878848
375,eureka,40.8021,-124.1637,45.21,91,100,5.01,US,1667878849
376,havre,49.5833,0.3333,56.97,72,0,14.97,FR,1667878849
377,albufeira,37.0882,-8.2503,66.02,88,100,8.61,PT,1667878849
378,saint-augustin,51.226,-58.6502,45.46,66,75,25.3,CA,1667878850
379,teahupoo,-17.8333,-149.2667,75.16,84,25,9.89,PF,1667878850
380,warrington,53.3925,-2.5802,52.99,89,92,13.8,GB,1667878843
381,lazaro cardenas,17.9583,-102.2,77.43,86,1,2.35,MX,1667878773
382,zhucheng,35.9947,119.3975,62.87,40,0,3.62,CN,1667878851
383,ayagoz,47.9714,80.4392,43.68,86,100,19.89,KZ,1667878851
384,tumpat,6.1978,102.171,84.18,84,20,1.14,MY,1667878851
385,bedesa,8.9,40.7833,62.1,55,9,3.02,ET,1667878852
386,chute-aux-outardes,49.1168,-68.399,40.98,52,0,18.41,CA,1667878852
387,nueva gerona,21.8833,-82.8,79.2,70,11,17.13,CU,1667878852
388,buckeye,33.3703,-112.5838,71.22,40,0,4.61,US,1667878853
389,the valley,18.217,-63.0578,78.66,80,100,21.88,AI,1667878761
390,lewiston,44.1003,-70.2148,53.24,45,0,16.11,US,1667878853
391,ostrovnoy,68.0531,39.5131,28.54,95,73,4.94,RU,1667878854
392,buraydah,26.326,43.975,63.05,40,0,7.81,SA,1667878854
393,bubaque,11.2833,-15.8333,83.68,61,80,12.64,GW,1667878855
394,chiang khong,20.2613,100.4046,83.44,43,0,0.63,TH,1667878855
395,sibolga,1.7427,98.7792,85.21,64,94,4.14,ID,1667878855
396,marawi,7.9986,124.2928,80.64,71,82,3.78,PH,1667878856
397,hambantota,6.1241,81.1185,77.34,100,75,5.75,LK,1667878856
398,aklavik,68.2191,-135.0107,1.51,84,100,11.54,CA,1667878857
399,nizhniy kuranakh,58.8353,125.4869,22.23,93,100,1.66,RU,1667878857
400,luganville,-15.5333,167.1667,82.6,78,56,10.13,VU,1667878857
401,vaijapur,19.9167,74.7333,77.92,41,67,2.64,IN,1667878858
402,tukrah,32.5341,20.5791,66.69,81,26,8.86,LY,1667878858
403,ambanja,-13.6833,48.45,76.93,78,10,1.1,MG,1667878858
404,dalby,-27.1833,151.2667,76.03,32,82,10.4,AU,1667878859
405,tatawin,32.9297,10.4518,57.11,34,0,5.17,TN,1667878859
406,moerai,-22.4333,-151.3333,72.66,77,10,13.29,PF,1667878859
407,baghdad,33.3406,44.4009,55.31,44,0,2.3,IQ,1667878857
408,houma,29.5958,-90.7195,73.0,96,0,3.44,US,1667878801
409,adrar,20.5022,-10.0711,72.39,18,11,9.53,MR,1667878860
410,tarko-sale,64.9225,77.785,19.26,92,100,12.91,RU,1667878860
411,maragheh,37.3917,46.2398,43.07,57,75,18.41,IR,1667878861
412,pemba,-12.974,40.5178,77.68,80,97,9.91,MZ,1667878861
413,wahiawa,21.5028,-158.0236,80.92,71,75,8.05,US,1667878861
414,bukama,-9.2,25.85,66.97,91,99,3.18,CD,1667878862
415,minsk,53.9,27.5667,44.35,93,97,8.39,BY,1667878862
416,maroantsetra,-15.4333,49.7333,71.56,76,7,2.86,MG,1667878863
417,scarborough,54.2797,-0.4044,56.77,87,100,5.99,GB,1667878748
418,geraldton,-28.7667,114.6,73.81,56,40,16.11,AU,1667878863
419,coihaique,-45.5752,-72.0662,54.21,87,20,6.91,CL,1667878863
420,osa,57.2829,55.4567,28.99,95,99,7.72,RU,1667878864
421,aktas,49.7789,72.9608,26.35,72,97,6.53,KZ,1667878864
422,vilhena,-12.7406,-60.1458,68.99,42,4,0.63,BR,1667878865
423,kpandae,8.4689,-0.0113,74.62,64,100,2.89,GH,1667878865
424,mnogovershinnyy,53.9353,139.9242,20.57,84,96,9.51,RU,1667878865
425,sao filipe,14.8961,-24.4956,77.29,68,100,3.18,CV,1667878831
426,bol,13.4586,14.7147,78.4,42,22,13.13,TD,1667878866
427,abu kamal,34.4506,40.9171,62.64,51,99,9.06,SY,1667878866
428,balkanabat,39.5108,54.3671,42.76,50,0,8.16,TM,1667878867
429,kultuk,51.7208,103.6956,32.16,77,100,3.18,RU,1667878867
430,karatuzskoye,53.6072,92.8667,32.18,76,100,1.83,RU,1667878867
431,lansing,42.7325,-84.5555,39.58,69,0,9.22,US,1667878868
432,rudnyy,52.9594,63.1206,28.63,96,85,4.72,KZ,1667878868
433,slupsk,54.4641,17.0287,48.45,89,96,10.96,PL,1667878869
434,jorochito,-18.05,-63.4333,70.03,48,71,4.97,BO,1667878869
435,avera,33.194,-82.5271,65.71,77,2,5.82,US,1667878870
436,severo-yeniseyskiy,60.3725,93.0408,16.83,91,99,7.2,RU,1667878870
437,jalu,29.0331,21.5482,60.96,84,0,7.7,LY,1667878870
438,am timan,11.0297,20.2827,74.98,38,93,5.99,TD,1667878871
439,saint-francois,46.4154,3.9054,40.44,93,0,4.61,FR,1667878871
440,acapulco,16.8634,-99.8901,80.42,89,20,4.61,MX,1667878871
441,hastings,50.8552,0.5729,59.92,76,99,31.03,GB,1667878872
442,chernyshevskiy,63.0128,112.4714,16.36,91,100,1.7,RU,1667878872
443,luziania,-16.2525,-47.9503,67.69,73,44,2.73,BR,1667878872
444,bara,10.3744,10.7288,70.34,28,23,6.33,NG,1667878831
445,qarqin,37.4185,66.0436,45.61,78,100,24.16,AF,1667878873
446,ugoofaaru,5.6667,73.0,81.16,76,28,9.15,MV,1667878873
447,bilibino,68.0546,166.4372,-4.92,95,38,4.47,RU,1667878874
448,aanekoski,62.6946,25.818,42.87,4,100,3.2,FI,1667878874
449,karacakoy,41.4029,28.3834,57.67,78,28,10.49,TR,1667878875
450,cabatuan,10.8794,122.486,85.95,73,99,10.09,PH,1667878875
451,taywarah,33.35,64.4167,37.51,61,79,3.96,AF,1667878876
452,tromso,69.6496,18.957,34.38,93,75,3.44,NO,1667878876
453,gogrial,8.5332,28.1004,75.09,60,84,3.74,SS,1667878876
454,ust-tarka,55.5672,75.705,25.14,89,39,2.44,RU,1667878877
455,sinnamary,5.3833,-52.95,76.95,88,100,6.58,GF,1667878877
456,olinda,-8.0089,-34.8553,80.33,69,40,5.75,BR,1667878878
457,awjilah,29.1081,21.2869,61.11,86,0,7.47,LY,1667878878
458,otjiwarongo,-20.4637,16.6477,58.32,34,0,4.34,NA,1667878879
459,la palma,33.8464,-118.0467,62.31,93,75,3.0,US,1667878879
460,san rafael del sur,11.8485,-86.4384,76.17,91,99,2.89,NI,1667878880
461,oranjemund,-28.55,16.4333,58.32,93,44,3.87,NA,1667878880
462,tongliao,43.6125,122.2653,54.28,19,65,15.1,CN,1667878880
463,balykshi,47.0667,51.8667,35.6,80,75,2.24,KZ,1667878881
464,aripuana,-9.1667,-60.6333,77.41,53,78,1.34,BR,1667878881
465,iwanai,42.9744,140.5089,51.21,64,63,7.7,JP,1667878881
466,saint-pierre,-21.3393,55.4781,76.68,57,0,3.44,RE,1667878582
467,clarence town,-32.5833,151.7833,75.15,54,57,10.02,AU,1667878882
468,urengoy,65.9667,78.3667,20.8,96,100,8.46,RU,1667878883
469,abong mbang,3.9833,13.1833,66.06,99,100,1.57,CM,1667878883
470,turukhansk,65.8167,87.9833,19.29,96,100,8.9,RU,1667878883
471,lazarev,52.225,141.5131,30.29,57,9,8.84,RU,1667878884
472,pomabamba,-8.8333,-77.4667,52.0,78,95,1.1,PE,1667878884
473,anadyr,64.75,177.4833,27.1,92,75,17.9,RU,1667878885
474,luanda,-8.8368,13.2343,77.0,88,75,8.05,AO,1667878885
475,araucaria,-25.5931,-49.4103,55.56,88,57,4.92,BR,1667878885
476,santiago de cao,-7.9589,-79.2392,60.93,88,100,8.05,PE,1667878886
477,mogadishu,2.0371,45.3438,78.82,78,17,8.16,SO,1667878886
478,jian,27.1172,114.9793,77.59,50,10,3.47,CN,1667878886
479,lasa,46.6166,10.7002,35.37,52,44,1.25,IT,1667878887
480,state college,40.7934,-77.86,50.65,47,40,6.91,US,1667878887
481,saint andrews,34.0454,-81.1293,71.33,78,40,0.0,US,1667878837
482,anshun,26.25,105.9333,63.99,63,66,14.36,CN,1667878887
483,hounde,11.5,-3.5167,70.48,21,8,4.43,BF,1667878888
484,kaeo,-35.1,173.7833,66.33,86,99,10.09,NZ,1667878888
485,bosaso,11.2842,49.1816,80.29,68,0,3.15,SO,1667878889
486,anderson,34.5334,-82.6499,70.54,96,40,0.0,US,1667878780
487,poum,-20.2333,164.0167,77.83,81,99,18.7,NC,1667878889
488,agadir,30.4202,-9.5982,59.45,36,100,4.83,MA,1667878846
489,piacabucu,-10.4056,-36.4344,74.32,91,23,6.93,BR,1667878890
490,port keats,-14.25,129.55,92.12,50,75,13.8,AU,1667878890
491,morristown,36.214,-83.2949,68.04,76,20,3.44,US,1667878891
492,yulara,-25.2406,130.9889,91.24,22,75,19.57,AU,1667878891
493,havre-saint-pierre,50.2334,-63.5986,41.0,87,0,20.71,CA,1667878892
494,talaya,61.3833,152.75,1.47,85,100,4.32,RU,1667878892
495,guadalupe y calvo,26.1,-106.9667,46.09,44,26,6.17,MX,1667878893
496,jaisalmer,26.9147,70.9181,77.67,32,24,9.51,IN,1667878893
497,posse,-14.0931,-46.3694,69.46,78,96,2.35,BR,1667878893
498,lompoc,34.6391,-120.4579,51.94,93,100,5.75,US,1667878667
499,togul,53.465,85.9128,30.72,76,54,4.23,RU,1667878894
500,chabahar,25.2919,60.643,80.53,72,2,4.47,IR,1667878894
501,malanje,-9.5402,16.341,62.44,97,100,4.52,AO,1667878895
502,victor harbor,-35.5667,138.6167,92.68,43,37,2.73,AU,1667878895
503,lakes entrance,-37.8811,147.981,78.17,58,2,9.1,AU,1667878895
504,shieli,44.1667,66.75,41.11,82,98,8.52,KZ,1667878896
505,prado,-17.3411,-39.2208,68.86,77,100,4.34,BR,1667878889
506,ribas do rio pardo,-20.4431,-53.7592,62.98,49,21,3.62,BR,1667878896
507,komsomolskiy,40.4272,71.7189,47.12,81,40,0.0,UZ,1667878865
508,ornskoldsvik,63.2909,18.7153,29.35,100,100,5.75,SE,1667878897
509,waingapu,-9.6567,120.2641,87.69,62,77,10.36,ID,1667878897
510,punta de piedra,7.6176,-71.4916,72.97,93,99,1.5,VE,1667878898
511,miri,4.4148,114.0089,84.34,79,40,4.61,MY,1667878831
512,kumo,10.0447,11.2122,71.74,29,20,6.22,NG,1667878898
513,preobrazheniye,42.9019,133.9064,46.9,41,0,6.02,RU,1667878899
514,amga,60.8953,131.9608,0.75,84,100,2.46,RU,1667878899
515,karasjok,69.4719,25.5112,31.05,96,100,4.12,NO,1667878899
516,masyaf,35.0653,36.3406,54.19,92,100,3.51,SY,1667878900
517,suntar,62.1444,117.6319,18.57,93,100,2.55,RU,1667878900
518,atar,20.5169,-13.0499,76.82,18,97,3.29,MR,1667878825
519,nelspruit,-25.4745,30.9703,70.21,100,100,9.22,ZA,1667878901
520,sarangani,5.4033,125.4636,83.28,71,94,1.97,PH,1667878901
521,gravdal,68.1214,13.5031,41.68,72,10,15.97,NO,1667878902
522,yenagoa,4.9247,6.2642,76.03,90,100,3.11,NG,1667878902
523,prince george,53.9166,-122.753,6.24,60,0,13.8,CA,1667878809
524,delaware,39.0004,-75.4999,62.92,44,0,9.22,US,1667878810
525,kununurra,-15.7667,128.7333,103.98,17,86,9.22,AU,1667878903
526,watertown,42.3709,-71.1828,57.42,43,0,14.97,US,1667878903
527,oromocto,45.8351,-66.4792,49.93,46,0,11.5,CA,1667878903
528,presidencia roque saenz pena,-26.7852,-60.4388,69.01,42,100,6.58,AR,1667878904
529,tadine,-21.55,167.8833,77.99,73,83,8.1,NC,1667878904
530,arawa,-6.2132,155.5367,83.19,83,71,5.03,PG,1667878904
531,springdale,36.1867,-94.1288,62.51,71,0,10.36,US,1667878905
532,aksum,14.1245,38.7244,56.48,64,6,4.09,ET,1667878905
533,tuatapere,-46.1333,167.6833,66.06,54,65,6.29,NZ,1667878905
534,giyon,8.5333,37.9833,53.28,62,83,8.12,ET,1667878906
535,dharchula,29.85,80.5333,67.28,33,0,4.07,IN,1667878906
536,guerrero negro,27.9769,-114.0611,65.21,77,41,9.1,MX,1667878907
537,honiara,-9.4333,159.95,84.63,75,37,6.98,SB,1667878907
538,todos santos,23.45,-110.2167,72.66,71,17,4.85,MX,1667878908
539,baykit,61.67,96.37,16.41,91,93,3.96,RU,1667878908
540,gigmoto,13.7796,124.39,84.4,76,100,7.45,PH,1667878908
541,anaconda,46.1285,-112.9423,18.59,95,83,3.85,US,1667878909
542,walvis bay,-22.9575,14.5053,59.09,94,28,3.44,NA,1667878909
543,santa lucia,27.9117,-15.5407,61.92,78,20,12.66,ES,1667878814
544,barranca,-10.75,-77.7667,62.91,85,14,6.15,PE,1667878909
545,palmerston,-12.486,130.9833,94.89,57,20,14.97,AU,1667878910
546,selma,36.5708,-119.6121,54.91,97,79,4.61,US,1667878910
547,vestmannaeyjar,63.4427,-20.2734,45.45,85,100,19.66,IS,1667878905
548,mujiayingzi,42.1167,118.7833,53.04,13,1,13.24,CN,1667878911
549,mercedes,-34.6515,-59.4307,61.95,63,0,9.01,AR,1667878912
550,hobyo,5.3505,48.5268,80.56,72,30,6.04,SO,1667878912
551,porto novo,6.4965,2.6036,80.42,90,71,2.04,BJ,1667878912
552,andenes,69.3143,16.1194,39.18,81,20,17.27,NO,1667878913
553,miraflores,19.2167,-98.8083,63.25,76,4,3.27,MX,1667878914
